City,Country,Latitude,Longitude,Max Temperature (F),Humidity (%),Cloudiness (%),Wind Speed (mph),Date
Kysyl-Syr,RU,63.8986,122.7617,-11.09,95,74,4.36,1616546509
Kamaishi,JP,39.2667,141.8833,44.6,61,40,5.75,1616546509
Saskylakh,RU,71.9167,114.0833,-27.65,97,88,5.97,1616546280
Cape Town,ZA,-33.9258,18.4232,72.0,68,0,8.05,1616546226
Barrow,US,71.2906,-156.7887,-7.6,71,1,11.5,1616546395
Río Gallegos,AR,-51.6226,-69.2181,48.2,57,40,23.02,1616546510
Rikitea,PF,-23.1203,-134.9692,79.86,74,14,11.07,1616546229
Vila Franca do Campo,PT,37.7167,-25.4333,55.4,76,20,16.11,1616546510
Cidreira,BR,-30.1811,-50.2056,71.8,91,100,8.93,1616546511
Mogadishu,SO,2.0371,45.3438,78.58,77,44,12.88,1616546511
Albany,US,42.6001,-73.9662,59.0,26,75,5.75,1616546222
Yulara,AU,-25.2406,130.9889,75.2,69,0,6.91,1616546511
Tessalit,ML,20.1986,1.0114,68.9,10,14,8.77,1616546512
Yellowknife,CA,62.456,-114.3525,1.99,60,75,11.5,1616546265
Lavrentiya,RU,65.5833,-171.0,15.06,94,100,12.64,1616546512
Ponta do Sol,PT,32.6667,-17.1,55.99,59,40,3.0,1616546513
Hithadhoo,MV,-0.6,73.0833,82.89,72,69,8.88,1616546513
Vaini,TO,-21.2,-175.2,80.6,78,75,16.11,1616546513
Bawku,GH,11.0616,-0.2417,87.35,40,3,5.55,1616546513
Boguchany,RU,58.3814,97.4531,18.03,93,96,2.04,1616546514
Yeppoon,AU,-23.1333,150.7333,84.2,79,90,12.66,1616546514
Bilibino,RU,68.0546,166.4372,7.48,86,100,3.74,1616546514
City of San Pedro,PH,14.35,121.0167,82.4,65,75,4.61,1616546515
Severo-Kuril'sk,RU,50.6789,156.125,34.03,84,89,13.89,1616546515
Bredasdorp,ZA,-34.5322,20.0403,64.4,88,39,9.22,1616546225
Dunedin,NZ,-45.8742,170.5036,55.0,83,100,4.0,1616546274
Ponta Delgada,PT,37.7333,-25.6667,55.4,76,20,16.11,1616546515
Punta Arenas,CL,-53.15,-70.9167,44.6,76,40,29.93,1616546516
Avarua,CK,-21.2078,-159.775,86.0,79,20,10.36,1616546516
Busselton,AU,-33.65,115.3333,55.99,86,59,1.01,1616546516
Albox,ES,37.3886,-2.1495,55.0,48,5,5.99,1616546517
Atuona,PF,-9.8,-139.0333,80.67,72,100,18.57,1616546517
Champerico,GT,14.3,-91.9167,84.2,70,75,4.61,1616546517
Sinnamary,GF,5.3833,-52.95,76.78,88,91,11.56,1616546518
Krasne,UA,49.9145,24.6134,24.8,93,0,4.47,1616546518
Hobyo,SO,5.3505,48.5268,77.14,62,5,11.14,1616546518
New Norfolk,AU,-42.7826,147.0587,62.01,83,100,6.35,1616546519
Thompson,CA,55.7435,-97.8558,10.4,44,20,5.75,1616546519
Faanui,PF,-16.4833,-151.75,83.8,73,22,19.64,1616546223
Qaanaaq,GL,77.484,-69.3632,-21.62,61,94,4.88,1616546520
Sobolevo,RU,54.4299,31.8996,13.46,94,15,4.68,1616546520
Kumul,CN,42.8,93.45,47.44,29,100,2.91,1616546520
Kapaa,US,22.0752,-159.319,80.01,53,20,16.11,1616546520
Plettenberg Bay,ZA,-34.0527,23.3716,64.35,88,100,6.62,1616546521
Weatherford,US,32.7593,-97.7972,73.4,30,1,3.44,1616546521
Mahonda,TZ,-6.45,39.4667,82.85,71,13,3.98,1616546521
La Rioja,ES,42.25,-2.5,44.01,81,0,1.14,1616546522
Ushuaia,AR,-54.8,-68.3,44.6,76,90,21.85,1616546522
Nikolskoye,RU,59.7035,30.7861,35.6,75,0,6.71,1616546522
Jamestown,US,42.097,-79.2353,57.2,41,1,13.13,1616546424
Cockburn Town,TC,21.4612,-71.1419,77.77,77,0,13.91,1616546523
Laguna,US,38.421,-121.4238,68.0,15,1,20.71,1616546523
San Cristobal,VE,7.7669,-72.225,80.6,74,40,2.3,1616546324
Las Palmas,ES,28.4204,-14.0131,66.2,59,0,9.22,1616546524
Lukovetskiy,RU,64.2956,41.9211,33.8,80,40,8.95,1616546524
Mataura,NZ,-46.1927,168.8643,62.01,74,100,1.7,1616546524
Pochutla,MX,15.7432,-96.4661,84.2,54,1,11.5,1616546525
East London,ZA,-33.0153,27.9116,66.43,76,25,10.71,1616546525
Pisco,PE,-13.7,-76.2167,71.6,78,0,16.11,1616546343
Mokrous,RU,51.2333,47.5167,31.73,98,100,10.0,1616546525
Smithers,CA,54.7804,-127.1743,44.6,57,90,2.3,1616546526
Kaeo,NZ,-35.1,173.7833,71.76,53,39,7.27,1616546526
Altamont,US,42.2068,-121.7372,51.8,17,1,14.97,1616546526
Florø,NO,61.5996,5.0328,42.8,81,90,35.68,1616546527
Hilo,US,19.7297,-155.09,77.0,69,75,13.8,1616546505
Gaoua,BF,10.2992,-3.2508,82.15,59,93,5.7,1616546527
Road Town,VG,18.4167,-64.6167,78.01,78,20,3.44,1616546527
Arrifes,PT,37.7667,-25.7,55.4,82,20,13.8,1616546528
Charters Towers,AU,-20.1,146.2667,87.73,52,85,3.0,1616546528
Portland,US,45.5234,-122.6762,57.2,41,20,4.61,1616545911
Okha,RU,53.5739,142.9478,10.42,67,15,23.82,1616546528
Bela,IN,25.9333,81.9833,73.45,34,99,6.55,1616546529
Hobart,AU,-42.8794,147.3294,62.01,94,75,10.36,1616546529
Denpasar,ID,-8.65,115.2167,80.6,89,40,1.14,1616546529
Arraial do Cabo,BR,-22.9661,-42.0278,77.0,88,20,1.21,1616546530
Dikson,RU,73.5069,80.5464,-7.71,91,100,4.38,1616546530
Kostanay,KZ,53.1667,63.5833,19.4,86,0,11.18,1616546530
Nanortalik,GL,60.1432,-45.2371,22.87,69,49,9.01,1616546531
Aripuanã,BR,-9.1667,-60.6333,70.48,98,78,0.18,1616546531
Margate,GB,51.3813,1.3862,42.01,83,15,1.01,1616546531
Khatanga,RU,71.9667,102.5,-6.36,95,100,4.0,1616546532
Ribeira Grande,PT,38.5167,-28.7,55.89,56,60,10.2,1616546253
Laas,IT,46.6166,10.7002,37.99,74,0,6.91,1616546420
Bilgrām,IN,27.1833,80.0333,75.0,32,26,5.79,1616546532
Jiangyou,CN,31.7667,104.7167,54.57,68,19,2.98,1616546532
Kaitangata,NZ,-46.2817,169.8464,59.0,73,96,4.0,1616546533
Yerofey Pavlovich,RU,53.9667,121.9667,20.75,82,100,1.52,1616546533
Paraná,AR,-31.732,-60.5238,75.0,73,0,1.99,1616546533
Beberibe,BR,-4.1797,-38.1306,78.01,94,0,1.14,1616546534
Aquiraz,BR,-3.9014,-38.3911,78.01,94,0,1.14,1616546534
Castro,BR,-24.7911,-50.0119,65.35,88,100,1.1,1616546534
Kilindoni,TZ,-7.9139,39.6668,82.44,75,26,5.1,1616546535
Hastings,GB,50.8552,0.5729,41.0,93,34,5.75,1616546535
Paramonga,PE,-10.6667,-77.8333,71.6,81,100,8.75,1616546535
Pevek,RU,69.7008,170.3133,5.61,79,100,3.47,1616546535
Nemuro,JP,43.3236,145.575,42.8,65,20,19.57,1616546536
Santa Cruz de la Sierra,BO,-17.8,-63.1667,78.8,69,40,4.61,1616546400
Manado,ID,1.487,124.8455,78.8,94,40,2.3,1616546536
Ufa,RU,54.775,56.0375,28.4,93,90,11.18,1616546460
Upernavik,GL,72.7868,-56.1549,-14.82,95,100,2.55,1616546537
Alofi,NU,-19.0595,-169.9187,84.2,84,40,8.05,1616546537
Cayenne,GF,4.9333,-52.3333,80.01,89,90,3.44,1616546537
Matara,LK,5.9485,80.5353,76.41,85,100,8.21,1616546537
Saldanha,ZA,-33.0117,17.9442,68.0,60,86,4.61,1616546538
Berezovyy,RU,51.6667,135.7,22.24,42,17,12.46,1616546538
Narasannapeta,IN,18.4167,84.05,77.49,48,53,3.69,1616546538
Itarema,BR,-2.9248,-39.9167,77.09,85,52,8.66,1616546344
Coyhaique,CL,-45.5752,-72.0662,50.0,53,75,7.9,1616546539
Mar del Plata,AR,-38.0023,-57.5575,68.0,88,0,9.22,1616546539
Kipushi,CD,-11.7667,27.2333,59.59,98,76,4.63,1616546539
Baturaja,ID,-4.1333,104.1667,74.68,94,100,1.59,1616546540
Flin Flon,CA,54.7682,-101.865,10.31,86,98,2.89,1616546540
Ürümqi,CN,43.801,87.6005,41.0,70,0,2.24,1616546540
Mahébourg,MU,-20.4081,57.7,78.8,83,40,6.24,1616546541
Umred,IN,20.85,79.3333,69.8,68,75,2.3,1616546541
Saint-Augustin,CA,51.226,-58.6502,27.23,94,55,6.06,1616546541
Cabo San Lucas,MX,22.8909,-109.9124,78.01,40,40,18.41,1616546262
Saint Anthony,US,45.0205,-93.218,46.99,87,90,13.8,1616546542
Pacocha,PE,-17.5833,-71.3333,69.78,81,35,3.4,1616546542
Irbit,RU,57.6705,63.071,24.06,94,100,7.61,1616546542
Provideniya,RU,64.3833,-173.3,30.54,93,100,12.39,1616546543
Chui,UY,-33.6971,-53.4616,66.18,77,37,6.24,1616546543
Tuktoyaktuk,CA,69.4541,-133.0374,-0.4,71,75,9.22,1616546543
Savannah Bight,HN,16.45,-85.85,80.01,89,0,1.01,1616546544
George Town,MY,5.4112,100.3354,80.01,89,40,6.62,1616546394
Salalah,OM,17.0151,54.0924,75.2,50,0,3.44,1616546368
Sol'-Iletsk,RU,51.1631,54.9918,24.39,93,100,7.43,1616546544
Japura,ID,-0.3167,102.35,74.68,94,100,3.18,1616546545
Etchoropo,MX,26.7667,-109.6667,71.01,43,79,5.01,1616546545
Pangnirtung,CA,66.1451,-65.7125,-30.64,98,94,4.88,1616546545
Mityana,UG,0.4175,32.0228,69.8,94,20,3.44,1616546546
Aksarka,RU,66.5606,67.7975,3.02,99,99,5.7,1616546546
Harbour Breton,CA,47.4833,-55.7983,34.81,87,100,8.37,1616546546
Bathsheba,BB,13.2167,-59.5167,78.8,57,40,16.11,1616546546
São Filipe,CV,14.8961,-24.4956,71.01,74,4,8.68,1616546547
Lompoc,US,34.6391,-120.4579,59.0,55,20,19.57,1616546547
Bohdan,UA,48.0412,24.3522,21.52,94,71,4.41,1616546547
Miranda,CO,3.2499,-76.2281,77.0,69,75,6.91,1616546548
Lüderitz,NA,-26.6481,15.1594,65.34,79,0,6.38,1616546548
Bethel,US,41.3712,-73.414,57.2,54,1,3.44,1616546548
Pingliang,CN,35.5392,106.6861,46.99,39,100,5.99,1616546549
Abay,KZ,49.6311,72.8539,15.8,86,90,22.37,1616546549
Leer,SS,8.3018,30.1418,82.08,52,50,3.83,1616546549
Norman Wells,CA,65.282,-126.8329,12.2,48,20,16.11,1616546537
Raja,SS,8.4596,25.678,75.69,74,100,4.03,1616546550
Longyan,CN,25.1072,117.0225,63.0,67,71,3.22,1616546550
Sabang,ID,5.8933,95.3214,80.24,79,100,17.67,1616546550
Udarnyy,RU,54.3409,42.8611,17.28,95,25,5.26,1616546551
Rāwah,IQ,34.4816,41.9093,65.08,66,91,4.76,1616546551
Burnie,AU,-41.0667,145.9167,60.01,90,100,14.0,1616546551
Aksaray,TR,38.3726,34.0254,39.2,93,75,9.22,1616546381
Santiago del Estero,AR,-27.7951,-64.2615,71.64,66,36,6.51,1616546416
Yaguajay,CU,22.3272,-79.2378,72.61,75,0,8.57,1616546552
Geraldton,AU,-28.7667,114.6,68.0,45,0,18.41,1616546407
Nouadhibou,MR,20.931,-17.0347,62.6,88,0,17.27,1616546552
Port Lincoln,AU,-34.7333,135.8667,69.98,66,32,10.8,1616546553
Maragogi,BR,-9.0122,-35.2225,78.39,80,23,7.4,1616546295
Skjervøy,NO,70.0311,20.9714,35.64,81,100,18.84,1616546553
Waverly,US,42.7392,-84.6208,64.4,36,90,13.8,1616546554
Mweka,CD,-4.85,21.5667,68.31,95,94,1.81,1616546554
Russell,US,32.3502,-85.1999,69.8,68,90,11.5,1616546554
Yangjiang,CN,21.85,111.9667,67.91,55,100,6.96,1616546302
Mandiana,GN,10.6333,-8.6833,79.99,61,99,3.74,1616546555
Westport,US,41.1415,-73.3579,51.01,87,1,4.61,1616546442
Port Alfred,ZA,-33.5906,26.891,66.85,78,93,14.25,1616546555
Kropotkin,RU,45.4375,40.5756,35.01,88,100,6.71,1616546555
Kayerkan,RU,69.3497,87.7602,5.05,94,100,12.19,1616546556
Petropavlovsk-Kamchatskiy,RU,53.0452,158.6483,32.0,43,87,4.47,1616546556
Port Augusta,AU,-32.5,137.7667,68.0,60,40,16.11,1616546556
Kāzerūn,IR,29.6195,51.6541,66.24,38,0,3.2,1616546557
Saint-Philippe,RE,-21.3585,55.7679,77.0,83,0,4.61,1616546557
Níjar,ES,36.9665,-2.206,55.0,94,0,5.75,1616546557
Conceição do Araguaia,BR,-8.2578,-49.2647,73.96,91,100,2.3,1616546558
Barrhead,GB,55.7992,-4.3929,41.0,87,100,9.22,1616546545
Vallenar,CL,-28.5708,-70.7581,69.22,55,0,1.41,1616546558
Havre-St-Pierre,CA,50.2334,-63.5986,35.6,80,1,6.91,1616546558
Samarai,PG,-10.6167,150.6667,85.6,69,99,10.69,1616546388
Kamenka,RU,51.3223,42.7678,30.99,94,100,15.12,1616546559
Fairbanks,US,64.8378,-147.7164,19.99,49,75,5.75,1616546441
Souillac,MU,-20.5167,57.5167,78.8,83,40,5.68,1616546559
Havøysund,NO,70.9963,24.6622,35.6,64,75,18.41,1616546559
Igrim,RU,63.1906,64.4162,15.58,94,100,6.76,1616546560
Verāval,IN,20.9,70.3667,76.77,55,0,10.02,1616546560
Hambantota,LK,6.1241,81.1185,75.2,100,75,3.44,1616546560
Tuatapere,NZ,-46.1333,167.6833,62.01,74,77,1.21,1616546561
Nome,US,64.5011,-165.4064,6.8,78,90,25.32,1616546561
Guerrero Negro,MX,27.9769,-114.0611,59.68,67,21,22.24,1616546561
Saint Paul Harbor,US,57.79,-152.4072,37.4,60,1,9.22,1616546562
Ossora,RU,59.2353,163.0719,23.59,63,4,12.62,1616546562
Meulaboh,ID,4.1363,96.1285,77.58,88,100,7.92,1616546562
Lorengau,PG,-2.0226,147.2712,83.8,72,100,8.19,1616546563
Bengkulu,ID,-3.8004,102.2655,76.62,87,100,2.89,1616546322
Egvekinot,RU,66.3167,-179.1667,13.95,87,100,9.53,1616546290
San Patricio,US,28.017,-97.5169,75.2,69,75,14.97,1616546563
Lebu,CL,-37.6167,-73.65,56.79,88,8,13.53,1616546563
Acajutla,SV,13.5928,-89.8275,72.0,94,0,5.01,1616546489
Beloha,MG,-25.1667,45.05,68.52,86,58,3.04,1616546564
Vostok,RU,46.4856,135.8833,28.54,58,0,1.99,1616546564
Campeche,MX,19.0,-90.5,87.69,43,37,8.66,1616546564
Tomatlán,MX,19.9333,-105.25,74.66,45,100,5.57,1616546565
Mossamedes,AO,-15.1961,12.1522,73.24,81,100,7.49,1616546299
Puerto Ayora,EC,-0.7393,-90.3518,77.0,94,41,1.86,1616546565
Fjerritslev,DK,57.0813,9.2664,43.0,75,90,18.41,1616546566
Hermanus,ZA,-34.4187,19.2345,68.0,81,18,7.0,1616546566
Butaritari,KI,3.0707,172.7902,81.88,78,12,20.07,1616546566
Catalão,BR,-18.1658,-47.9464,68.54,63,100,2.33,1616546566
Mayo,US,38.8876,-76.5119,57.2,62,1,8.05,1616546567
Cherskiy,RU,68.75,161.3,9.28,88,100,1.12,1616546567
Bluff,NZ,-46.6,168.3333,62.01,74,100,1.03,1616546567
Verkhnyaya Inta,RU,65.9811,60.3094,18.19,86,100,12.68,1616546568
Sola,VU,-13.8833,167.55,87.8,79,7,3.44,1616546568
Honningsvåg,NO,70.9821,25.9704,34.61,68,23,37.47,1616546568
Grande Prairie,CA,55.1667,-118.8027,33.8,93,90,3.44,1616546460
Prince Albert,CA,53.2001,-105.7677,19.4,58,75,6.91,1616546569
Zhicheng,CN,30.2956,111.5047,61.0,72,0,1.25,1616546569
Quatre Cocos,MU,-20.2078,57.7625,78.8,83,40,5.95,1616546570
Port Macquarie,AU,-31.4333,152.9167,84.99,56,1,4.0,1616546570
Alta Floresta,BR,-9.8756,-56.0861,70.81,86,77,3.11,1616546570
Hadano,JP,35.3711,139.2236,63.0,38,0,3.0,1616546570
Kichera,RU,55.9375,110.0997,27.07,95,100,3.0,1616546571
Rockford,US,42.2711,-89.094,55.4,88,90,13.8,1616546364
Fortuna,US,40.5982,-124.1573,55.99,62,1,13.8,1616546571
Constitución,CL,-35.3333,-72.4167,56.8,88,3,11.88,1616546276
Sioux Lookout,CA,50.1001,-91.917,46.4,31,75,3.44,1616546556
Oparino,RU,59.8518,48.2783,17.37,92,100,9.64,1616546572
Caravelas,BR,-17.7125,-39.2481,75.42,84,0,5.39,1616546572
Masterton,NZ,-40.9597,175.6575,69.01,76,3,5.01,1616546572
Kirakira,SB,-10.4544,161.9205,85.69,68,42,5.88,1616546573
Castelo do Piauí,BR,-5.3222,-41.5525,72.3,90,99,3.98,1616546573
Los Llanos de Aridane,ES,28.6585,-17.9182,62.6,55,0,8.05,1616546573
Praia,CV,14.9215,-23.5087,68.0,77,20,19.57,1616546573
Shwebo,MM,22.5667,95.7,82.89,33,5,3.83,1616546574
Rantepao,ID,-2.9701,119.8978,75.43,82,100,1.5,1616546574
Carutapera,BR,-1.195,-46.02,75.63,93,100,5.93,1616546574
Elizabeth City,US,36.2946,-76.2511,55.99,94,90,11.5,1616546575
Iqaluit,CA,63.7506,-68.5145,-22.0,69,20,23.02,1616546404
Kologriv,RU,58.8275,44.3178,17.76,93,68,6.98,1616546575
Seddon,AU,-37.8068,144.8916,66.99,94,90,9.22,1616546575
Torbay,CA,47.6666,-52.7314,42.8,42,75,24.16,1616546576
Bambous Virieux,MU,-20.3428,57.7575,78.8,83,40,6.06,1616546576
Tangwani,PK,28.2787,68.9972,66.2,82,0,17.58,1616546576
Olinda,BR,-8.0089,-34.8553,77.0,78,20,11.5,1616546577
Wānkāner,IN,22.6167,70.9333,82.0,73,0,4.61,1616546577
Ostrovnoy,RU,68.0531,39.5131,29.01,77,9,25.03,1616546577
Flinders,AU,-34.5833,150.8552,80.01,62,0,5.99,1616546578
Leningradskiy,RU,69.3833,178.4167,3.42,88,100,4.12,1616546578
Dunmanway,IE,51.7167,-9.1167,39.99,93,0,6.91,1616546578
Calama,CL,-22.4667,-68.9333,62.6,23,0,17.27,1616546579
Camacha,PT,33.0833,-16.3333,59.0,72,20,9.22,1616546579
Acaraú,BR,-2.8856,-40.12,77.09,86,67,9.19,1616546366
Satipo,PE,-11.2522,-74.6386,67.1,98,82,1.72,1616546579
Blenheim,NZ,-41.516,173.9528,66.99,62,38,1.99,1616546580
Sweetwater,US,25.7634,-80.3731,71.6,60,20,6.91,1616546580
Djebeniana,TN,35.035,10.9081,46.4,61,20,4.61,1616546580
Zhoucheng,CN,35.9122,116.3117,54.0,1,98,8.39,1616546581
Manzanares,ES,38.9991,-3.3699,44.01,66,5,5.41,1616546581
Kawalu,ID,-7.3817,108.2082,77.07,86,100,0.89,1616546581
Eydhafushi,MV,5.1033,73.0708,83.07,66,99,3.33,1616546582
Marabu,MY,4.4148,114.0089,78.8,100,20,4.27,1616546582
Río Cuarto,AR,-33.1307,-64.3499,68.0,64,0,14.97,1616546582
Tynda,RU,55.1667,124.7167,5.7,86,100,0.69,1616546583
Coruripe,BR,-10.1256,-36.1756,77.52,82,12,8.86,1616546583
Fare,PF,-16.7,-151.0167,83.66,73,5,20.47,1616546583
Pecos,US,31.4229,-103.4932,75.2,6,1,5.75,1616546343
Vanimo,PG,-2.6741,141.3028,86.14,65,96,1.34,1616546584
Chokurdakh,RU,70.6333,147.9167,-8.05,94,100,12.12,1616546584
Hong Kong,HK,22.2855,114.1577,66.99,70,96,1.01,1616546365
Sept-Îles,CA,50.2001,-66.3821,44.6,49,40,3.44,1616546402
Kruisfontein,ZA,-34.0033,24.7314,64.99,84,100,1.99,1616546585
College,US,64.8569,-147.8028,19.4,49,75,5.75,1616546585
Paita,PE,-5.0892,-81.1144,74.23,79,100,13.4,1616546585
Provincie Utrecht,NL,52.0,5.25,39.0,91,17,6.53,1616546481
Anaco,VE,9.4389,-64.4728,81.05,60,93,7.94,1616546586
Puttūr,IN,12.7667,75.2167,80.6,89,20,0.78,1616546586
Houma,US,29.5958,-90.7195,62.6,94,90,17.27,1616546586
Farmington,US,36.7281,-108.2187,37.99,87,90,3.44,1616546586
Chumphon,TH,10.3333,98.8333,82.99,89,20,2.3,1616546587
Chanute,US,37.6792,-95.4572,53.6,82,90,14.97,1616546405
Martapura,ID,-3.4167,114.85,77.0,94,40,5.75,1616546587
Lago da Pedra,BR,-4.3333,-45.1667,73.38,96,100,2.84,1616546587
Byron Bay,AU,-28.65,153.6167,82.4,65,0,10.36,1616546488
Seoul,KR,37.5683,126.9778,50.0,53,100,8.05,1616546532
Gizo Government Station,SB,-8.103,156.8419,85.55,67,71,5.19,1616546588
Rudnaya Pristan',RU,44.3614,135.8116,42.51,61,38,1.66,1616546588
Henties Bay,NA,-22.116,14.2845,63.0,94,6,3.0,1616546589
Dordrecht,NL,51.81,4.6736,41.0,91,12,6.55,1616546589
Nieuw Amsterdam,SR,5.8833,-55.0833,78.01,94,40,8.05,1616546589
Malbork,PL,54.0359,19.0266,39.99,100,9,5.46,1616546590
Bichura,RU,50.5881,107.6022,33.64,75,58,3.18,1616546590
Mozarlândia,BR,-14.7447,-50.5706,74.97,78,100,1.5,1616546590
Bubaque,GW,11.2833,-15.8333,76.96,68,6,20.18,1616546590
Chegdomyn,RU,51.1167,133.0167,15.8,55,7,3.98,1616546591
Kulhudhuffushi,MV,6.6221,73.07,83.53,70,72,4.99,1616546591
Bandarbeyla,SO,9.4942,50.8122,75.15,65,6,4.23,1616546591
Muriwai Beach,NZ,-36.8167,174.45,73.0,56,7,5.01,1616546592
Mēga,ET,4.05,38.3,62.53,32,94,11.27,1616546592
Anadyr,RU,64.75,177.4833,24.8,93,40,6.71,1616546592
Saint George,US,37.1041,-113.5841,57.99,23,1,24.16,1616546529
Rocha,UY,-34.4833,-54.3333,64.85,80,66,4.76,1616546593
Victoria Point,AU,-27.5833,153.3,84.99,73,5,1.99,1616546593
Clyde River,CA,70.4692,-68.5914,-16.6,69,1,9.22,1616546593
Catuday,PH,16.2923,119.8062,81.48,66,7,12.68,1616546594
Līvāni,LV,56.3543,26.1758,32.04,86,100,4.21,1616546594
Anshun,CN,26.25,105.9333,51.1,67,0,6.62,1616546594
Erenhot,CN,43.6475,111.9767,41.25,40,0,6.49,1616546595
Sibolga,ID,1.7427,98.7792,75.69,88,100,2.64,1616546595
Sitka,US,57.0531,-135.33,42.8,87,90,8.05,1616546595
Klaksvík,FO,62.2266,-6.589,39.2,75,75,24.16,1616546595
Sun Valley,US,39.5963,-119.776,43.0,28,75,14.97,1616546596
Esperance,AU,-33.8667,121.9,59.0,77,90,8.05,1616546596
Karratha,AU,-20.7377,116.8463,87.12,49,9,5.86,1616546596
Ormond Beach,US,29.2858,-81.0559,64.99,88,20,6.91,1616546597
Adrar,MR,20.5022,-10.0711,71.65,15,0,13.56,1616546597
Bakhmach,UA,51.1808,32.7569,28.0,83,100,15.59,1616546597
Rødbyhavn,DK,54.6544,11.352,43.0,100,0,12.33,1616546598
Olafsvik,IS,64.8945,-23.7142,34.29,64,99,15.17,1616546598
Stornoway,GB,58.2093,-6.3865,42.01,81,40,16.11,1616546598
Halifax,CA,44.6453,-63.5724,42.01,87,0,8.05,1616546400
Hamilton,US,39.1834,-84.5333,66.0,39,90,8.05,1616546315
Tasiilaq,GL,65.6145,-37.6368,10.4,67,10,3.44,1616546599
Grand Gaube,MU,-20.0064,57.6608,77.0,87,9,4.0,1616546599
Kiunga,PG,-6.1219,141.2906,73.54,98,100,1.52,1616546599
Noormarkku,FI,61.5927,21.8685,42.8,65,0,8.05,1616546600
Talnakh,RU,69.4865,88.3972,3.99,95,100,13.89,1616546600
Carnarvon,AU,-24.8667,113.6333,73.4,68,6,9.22,1616546600
Takoradze,GH,4.8845,-1.7554,79.11,84,100,9.73,1616546600
Coquimbo,CL,-29.9533,-71.3436,60.8,82,0,3.44,1616546490
Dagohoy,PH,9.8927,124.2727,84.2,74,40,12.66,1616546601
Dongobesh,TZ,-4.0667,35.3833,56.37,93,47,6.33,1616546412
Beringovskiy,RU,63.05,179.3167,31.78,82,100,6.55,1616546370
Khasan,RU,42.4308,130.6434,40.62,76,100,4.23,1616546369
Jinxiang,CN,27.4327,120.6062,57.94,79,3,3.06,1616546601
Gornopravdinsk,RU,60.05,69.9,24.89,96,100,6.53,1616546602
Ransang,PH,8.9603,117.5828,83.62,70,97,3.29,1616546602
Mount Gambier,AU,-37.8333,140.7667,62.6,94,90,14.97,1616546602
Evensk,RU,61.95,159.2333,18.05,81,81,2.37,1616546603
Tazmalt,DZ,36.3868,4.3989,45.52,76,0,2.1,1616546603
Darhan,MN,49.4867,105.9228,34.88,61,100,3.87,1616546603
Kiryat Gat,IL,31.61,34.7642,62.01,100,2,7.74,1616546392
Luanda,AO,-8.8368,13.2343,77.0,94,75,11.5,1616546604
Taremskoye,RU,55.9289,43.0443,24.8,86,0,2.84,1616546604
Hualmay,PE,-11.0964,-77.6139,71.44,79,100,9.64,1616546604
Dindori,IN,22.95,81.0833,73.98,32,100,1.12,1616546605
Dargaville,NZ,-35.9333,173.8833,72.54,48,11,10.22,1616546605
Presidencia Roque Sáenz Peña,AR,-26.7852,-60.4388,77.0,83,98,1.99,1616546605
Narrabri,AU,-30.3167,149.7833,73.99,68,90,8.05,1616546606
Indian Head,US,38.6001,-77.1622,62.6,55,90,5.19,1616546606
Cam Ranh,VN,11.9214,109.1591,77.0,83,40,12.66,1616546606
Camabatela,AO,-8.1881,15.375,61.57,99,85,3.71,1616546606
Barcelos,PT,41.5388,-8.6151,50.0,93,20,3.18,1616546607
Longyearbyen,SJ,78.2186,15.6401,23.0,74,40,5.75,1616546580
Mpulungu,ZM,-8.7623,31.1141,70.27,83,17,6.42,1616546607
Todos Santos,MX,23.45,-110.2167,66.99,71,6,7.0,1616546608
San Rafael,AR,-34.6177,-68.3301,70.61,43,0,9.4,1616546576
Krasnyy Chikoy,RU,50.3643,108.7512,31.01,84,40,2.55,1616546608
Salta,AR,-24.7859,-65.4117,64.4,82,75,3.44,1616546608
Rūdbār,AF,30.15,62.6,68.77,12,85,9.73,1616546609
Jardim,BR,-21.4803,-56.1381,75.63,66,32,1.79,1616546609
Dzheyrakh,RU,42.8228,44.6756,41.0,100,100,8.95,1616546609
Kavieng,PG,-2.5744,150.7967,80.24,83,100,8.16,1616546610
Iracoubo,GF,5.4802,-53.2011,76.82,88,100,11.54,1616546610
Springbok,ZA,-29.6643,17.8865,64.47,69,0,4.54,1616546610
Asău,RO,46.4333,26.4,30.0,57,95,7.36,1616546610
Manyana,BW,-23.4,21.7167,64.02,90,65,7.07,1616546611
Hasaki,JP,35.7333,140.8333,59.0,58,40,12.66,1616546342
Lodja,CD,-3.4833,23.4333,68.25,94,74,1.25,1616546526
Baruun-Urt,MN,46.6806,113.2792,36.54,50,100,11.36,1616546611
Ribeira Brava,PT,32.65,-17.0667,55.99,73,50,7.0,1616546612
Port Blair,IN,11.6667,92.75,83.46,72,100,5.44,1616546612
Nouakchott,MR,18.0858,-15.9785,66.2,88,6,11.5,1616546340
Korla,CN,41.7597,86.1469,47.71,40,100,3.42,1616546612
Jiuquan,CN,39.7432,98.5174,43.9,16,100,4.16,1616546613
Tirumullaivāsal,IN,11.2333,79.8333,77.94,78,17,3.47,1616546613
Saint-Joseph,RE,-21.3667,55.6167,77.0,83,0,4.61,1616546613
Ilo,PE,-17.6394,-71.3375,70.29,80,26,5.1,1616546614
Kiama,AU,-34.6833,150.8667,80.01,62,0,5.99,1616546614
Kautokeino,NO,69.0125,23.0412,17.51,89,87,7.85,1616546614
Ikot Ekpene,NG,5.1794,7.7108,76.51,89,100,2.68,1616546615
Alice Springs,AU,-23.7,133.8833,73.4,73,9,5.75,1616546615
Las Lomas,PA,8.4333,-82.4,84.2,70,40,8.05,1616546615
Auki,SB,-8.7676,160.7034,87.78,61,74,2.73,1616546616
Nānākuli,US,21.3906,-158.1547,78.8,78,75,8.05,1616546616
Qeshm,IR,26.9581,56.2719,68.0,77,20,4.61,1616546616
Mikkeli,FI,61.6886,27.2723,41.0,70,0,4.61,1616546617
Tokmak,UA,47.2514,35.7058,30.56,77,100,8.25,1616546617
Anchorage,US,61.2181,-149.9003,30.99,47,1,6.91,1616546525
Ondangwa,NA,-17.9167,15.95,73.36,68,100,9.31,1616546617
Avera,US,33.194,-82.5271,66.2,72,1,7.14,1616546320
Bilbor,RO,47.05,25.5167,19.0,76,79,4.05,1616546618
Glendive,US,47.1053,-104.7125,37.4,65,75,24.16,1616546618
Pringsewu,ID,-5.3582,104.9744,77.72,84,96,1.36,1616546618
Narsaq,GL,60.9167,-46.05,19.4,45,75,5.75,1616546426
Airai,TL,-8.9266,125.4092,71.53,68,33,1.59,1616546619
Majene,ID,-3.5403,118.9707,83.43,70,73,1.63,1616546523
Esim,GH,4.8699,-2.2405,78.82,85,100,6.42,1616546619
Yangi Marg`ilon,UZ,40.4272,71.7189,46.4,71,4,4.61,1616546619
Ulverstone,AU,-41.15,146.1667,60.01,90,100,14.0,1616546620
Kemijärvi,FI,66.7131,27.4306,28.53,97,100,7.54,1616546620
Kāsaragod,IN,12.5,75.0,80.6,89,20,3.76,1616546620
Biak,ID,-0.9131,122.8766,81.77,70,100,0.34,1616546621
Igarka,RU,67.4667,86.5833,13.98,94,100,18.59,1616546621
Aberdeen,GB,57.1437,-2.0981,42.8,75,100,11.5,1616546509
Ixtapa,MX,20.7,-105.2,77.0,57,40,12.66,1616546479
Muhos,FI,64.808,25.9931,42.8,70,0,8.05,1616546622
Ilulissat,GL,69.2167,-51.1,-5.8,71,75,10.36,1616546622
Ugoofaaru,MV,5.6667,73.0,83.32,67,78,3.94,1616546622
Ibrā’,OM,22.6906,58.5334,67.44,34,0,1.61,1616546622
Katsuura,JP,35.1333,140.3,59.0,62,20,5.75,1616546383
Fomboni,KM,-12.28,43.7425,82.0,73,14,0.72,1616546623
Topolobampo,MX,25.6,-109.05,75.99,23,75,8.05,1616546623
Ekenäs,FI,59.9736,23.4339,35.01,94,100,11.81,1616546624
Līsakovsk,KZ,52.5369,62.4936,23.05,89,100,10.58,1616546624
Quelimane,MZ,-17.8786,36.8883,77.0,88,75,5.75,1616546624
Aklavik,CA,68.2191,-135.0107,6.8,56,100,4.61,1616546624
Ribas do Rio Pardo,BR,-20.4431,-53.7592,77.97,64,99,5.03,1616546625
Lang Son,VN,21.8333,106.7333,63.86,65,100,1.39,1616546625
Belyy Yar,RU,53.6039,91.3903,28.4,93,0,2.08,1616546625
Goderich,CA,43.7501,-81.7165,60.8,31,100,6.91,1616546626
Shingū,JP,33.7333,135.9833,59.0,63,75,6.91,1616546626
Nishihara,JP,26.1842,127.7558,68.0,64,75,9.22,1616546626
Setermoen,NO,68.861,18.3486,32.0,100,90,2.3,1616546626
Ambilobe,MG,-13.2,49.05,72.48,96,12,2.55,1616546627
Aguçadoura,PT,41.4318,-8.7804,50.0,93,20,7.11,1616546627
Makhachkala,RU,42.9764,47.5024,42.8,100,75,8.95,1616546628
Cap Malheureux,MU,-19.9842,57.6142,77.0,87,8,4.0,1616546628
Hillsborough,US,37.5741,-122.3794,64.99,27,20,24.16,1616546628
Mamou,GN,10.5,-12.0,78.04,50,100,3.38,1616546629
Severnoye,RU,56.3491,78.3619,23.99,96,100,9.55,1616546378
Zhangjiakou,CN,40.81,114.8794,45.1,41,0,5.28,1616546629
Katherine,AU,-14.4667,132.2667,86.0,70,40,9.22,1616546629
Kibaya,TZ,-5.3,36.5667,59.54,96,83,3.13,1616546630
Pemangkat,ID,1.1667,108.9667,75.92,92,100,9.04,1616546630
Kokstad,ZA,-30.5472,29.4241,52.84,95,90,3.76,1616546377
Jieshi,CN,22.8134,115.8257,64.0,72,51,2.68,1616546630
Khorixas,NA,-20.3667,14.9667,69.01,86,100,1.88,1616546631
Broome,US,42.2506,-75.833,57.2,33,1,5.75,1616546631
Mount Isa,AU,-20.7333,139.5,77.0,83,90,9.22,1616546631
Manokwari,ID,-0.8667,134.0833,83.7,65,90,2.51,1616546632
Gouyave,GD,12.1646,-61.7296,78.8,73,20,23.02,1616546632
Codrington,AU,-38.2667,141.9667,62.44,95,100,12.75,1616546632
Victor Harbor,AU,-35.5667,138.6167,68.0,74,72,14.43,1616546632
Manjacaze,MZ,-24.7117,33.8828,67.3,91,61,4.12,1616546633
Bentiu,SS,9.2333,29.8333,82.83,51,82,4.72,1616546633
Gweru,ZW,-19.45,29.8167,58.42,92,82,10.04,1616546633
Nyurba,RU,63.2842,118.3319,0.57,92,100,1.03,1616546634
Taltal,CL,-25.4,-70.4833,65.93,83,29,2.19,1616546634
Borovskoy,KZ,53.8,64.15,21.58,91,100,11.39,1616546634
Kavaratti,IN,10.5669,72.642,82.94,70,12,4.05,1616546635
Sur,OM,22.5667,59.5289,77.61,37,0,9.6,1616546635
Aktobe,KZ,50.2797,57.2072,26.6,86,0,13.42,1616546635
Bafra,TR,41.5678,35.9069,43.0,87,75,6.91,1616546636
Hrubieszów,PL,50.805,23.8925,26.26,80,3,5.3,1616546636
Noumea,NC,-22.2763,166.4572,86.0,58,0,5.75,1616546350
Labuhan,ID,-6.8844,112.2051,80.19,81,95,5.97,1616546636
Bocas del Toro,PA,9.3333,-82.25,66.0,76,25,1.88,1616546637
Scarborough,GB,54.2797,-0.4044,48.0,77,100,5.01,1616546627
Skagen,DK,57.7209,10.5839,42.01,91,60,14.0,1616546637
Dekar,BW,-21.5333,21.9333,67.87,81,97,4.74,1616546637
Tilichiki,RU,60.4667,166.1,17.02,70,95,13.82,1616546638
Arman',RU,59.7,150.1667,17.47,89,100,16.31,1616546638
La Santisima Trinidad,BO,-14.8333,-64.9,73.09,95,98,3.13,1616546638
Puebloviejo,CO,10.9938,-74.2844,84.2,70,75,9.22,1616546639
Bekovo,RU,52.4663,43.712,23.31,94,40,11.52,1616546639
Dingzhou,CN,38.5131,114.9956,51.8,71,100,4.47,1616546639
Colares,PT,38.7992,-9.4469,53.01,82,0,10.36,1616546640
Witu,KE,-2.3889,40.4382,80.6,83,40,4.61,1616546640
Thunder Bay,CA,48.4001,-89.3168,43.0,81,75,4.61,1616546640
Alberton,CA,46.8168,-64.0654,53.6,32,97,14.97,1616546641
Haines Junction,CA,60.7522,-137.5108,28.4,31,100,4.61,1616546641
Dhārchula,IN,29.85,80.5333,55.85,52,100,6.35,1616546641
Pengcheng,CN,36.4311,114.17,61.47,28,100,3.33,1616546641
Constantine,DZ,36.365,6.6147,37.4,93,20,3.44,1616546642
Strezhevoy,RU,60.7333,77.5889,12.2,79,0,6.71,1616546642
Chipinge,ZW,-20.1883,32.6236,56.86,95,12,2.01,1616546642
Hirado,JP,33.3597,129.5531,53.6,76,75,11.5,1616546425
Vila do Maio,CV,15.1333,-23.2167,68.0,77,20,19.57,1616546643
Sechura,PE,-5.5569,-80.8222,76.78,67,94,17.52,1616546643
Itupiranga,BR,-5.1347,-49.3267,73.85,96,100,2.55,1616546644
Vila Velha,BR,-20.3297,-40.2925,78.8,83,40,4.61,1616546644
Mackay,AU,-21.15,149.2,89.01,70,40,10.36,1616546644
Lewiston,US,44.1003,-70.2148,46.4,76,1,5.75,1616546580
Saint-François,FR,46.4154,3.9054,35.01,93,0,2.68,1616546645
Praia da Vitória,PT,38.7333,-27.0667,55.4,71,40,9.86,1616546645
North Platte,US,41.1239,-100.7654,39.2,81,90,21.85,1616546645
Bosaso,SO,11.2842,49.1816,75.92,46,5,9.78,1616546646
Monte Azul,BR,-15.155,-42.8747,70.97,53,47,5.84,1616546646
Mahenge,TZ,-8.6833,36.7167,62.37,96,48,1.39,1616546646
Necochea,AR,-38.5473,-58.7368,63.0,74,0,1.01,1616546359
Delta del Tigre,UY,-34.7633,-56.3853,69.8,78,0,8.05,1616546647
Kano,NG,12.0001,8.5167,77.0,53,0,3.44,1616546647
Parangan,PH,5.0839,119.9383,81.39,76,100,1.68,1616546647
Savannakhet,LA,16.566,104.751,66.2,82,40,2.3,1616546648
Ko Samui,TH,9.5357,99.9357,82.92,73,100,8.46,1616546648
Saint-Pierre,RE,-21.3393,55.4781,77.0,83,0,4.61,1616546648
Vardø,NO,70.3705,31.1107,32.86,69,8,32.86,1616546649
Tarpa,HU,48.1048,22.5374,32.0,74,4,10.36,1616546649
Marzuq,YE,14.4,46.4667,64.76,18,0,5.01,1616546649
Helena,US,46.5927,-112.0361,43.0,38,1,3.44,1616546600
Sursee,CH,47.1667,8.1,34.0,86,1,2.46,1616546650
Guiratinga,BR,-16.3494,-53.7583,71.35,83,98,3.4,1616546650
Atbasar,KZ,51.8,68.3333,9.63,97,76,9.62,1616546651
Khovd,MN,48.0056,91.6419,36.48,21,100,5.3,1616546651
Plattsburgh,US,44.6995,-73.4529,53.6,26,1,4.14,1616546651
Baoqing,CN,46.3317,132.2111,32.13,33,100,4.68,1616546652
Buraidah,SA,26.326,43.975,73.4,28,0,11.5,1616546652
Cochrane,CA,51.1834,-114.4687,39.0,52,1,16.11,1616546460
Kharp,RU,66.8014,65.8081,12.25,89,99,7.83,1616546652
Kismayo,SO,-0.3582,42.5454,80.11,79,44,10.33,1616546653
Kirensk,RU,57.7853,108.1119,25.68,94,100,4.21,1616546653
Berlevåg,NO,70.8578,29.0864,33.03,73,36,39.26,1616546653
Zhigansk,RU,66.7697,123.3711,-19.89,93,26,8.61,1616546654
Brae,GB,60.3964,-1.353,42.8,81,20,36.82,1616546654
Cueto,CU,20.6439,-75.9356,77.0,83,20,11.5,1616546654
Waingapu,ID,-9.6567,120.2641,82.89,69,39,3.0,1616546655
Mansehra,PK,34.3333,73.2,47.98,94,100,4.54,1616546655
Xingyi,CN,24.1877,102.817,55.02,81,92,3.98,1616546655
Makakilo City,US,21.3469,-158.0858,78.8,65,75,9.22,1616546656
Aurād,IN,18.25,77.4333,74.79,43,15,10.25,1616546656
Roald,NO,62.5833,6.1333,46.4,61,90,24.16,1616546656
Aswān,EG,24.0934,32.907,74.86,28,0,21.18,1616546657
Dandeli,IN,15.2667,74.6167,71.6,46,4,4.61,1616546657
Belaya Gora,RU,68.5333,146.4167,-4.92,89,100,10.42,1616546657
Eyl,SO,7.9803,49.8164,73.42,73,9,6.85,1616546657
Porto Walter,BR,-8.2686,-72.7439,71.64,98,46,2.13,1616546658
Bulancak,TR,40.9372,38.2291,41.0,100,75,4.61,1616546658
Dūngarpur,IN,23.8333,73.7167,74.62,23,0,3.85,1616546658
Lobva,RU,59.1854,60.5185,22.28,90,37,7.99,1616546659
Port Elizabeth,ZA,-33.918,25.5701,68.0,83,0,12.66,1616546654
Bonthe,SL,7.5264,-12.505,77.58,84,100,5.46,1616546659
Grand Baie,MU,-20.0182,57.5802,77.0,87,10,3.0,1616546660
Sørland,NO,67.667,12.6934,42.33,90,100,36.69,1616546660
Chapais,CA,49.7834,-74.8492,41.0,36,75,5.75,1616546660
Sovetskiy,RU,61.3614,63.5842,14.41,94,90,5.57,1616546661
Pangkalanbuun,ID,-2.6833,111.6167,77.94,88,87,2.57,1616546661
Dukat,RU,62.55,155.55,-3.39,84,95,3.91,1616546661
Iquique,CL,-20.2208,-70.1431,69.8,56,0,14.97,1616546451
Abu Kamal,SY,34.4506,40.9171,66.09,63,90,1.9,1616546662
Kloulklubed,PW,7.0419,134.2556,82.4,83,75,12.66,1616546662
Oddur,SO,4.1213,43.8894,70.32,72,45,15.17,1616546662
Vanderhoof,CA,54.0166,-124.0198,42.21,69,100,9.31,1616546663
Mehamn,NO,71.0357,27.8492,32.65,73,90,36.73,1616546663
Ucluelet,CA,48.9329,-125.5528,46.99,81,90,9.22,1616546523
Mareeba,AU,-17.0,145.4333,91.0,66,44,10.36,1616546663
Dhidhdhoo,MV,6.8833,73.1,83.62,71,55,5.41,1616546664
Touros,BR,-5.1989,-35.4608,78.8,83,75,3.44,1616546664
Machilipatnam,IN,16.1667,81.1333,75.2,78,1,2.15,1616546664
Ketchikan,US,55.3422,-131.6461,44.6,100,90,9.22,1616546665
Pimenta Bueno,BR,-11.6725,-61.1936,72.64,97,100,2.01,1616546665
Puerto Colombia,CO,10.9878,-74.9547,78.8,83,40,9.22,1616546665
Daru,PG,-9.0763,143.2092,85.89,70,87,2.86,1616546666
Tianpeng,CN,30.9866,103.9393,51.8,93,0,5.73,1616546666
Husavik,IS,66.0449,-17.3389,32.0,86,90,6.91,1616546666
St. George's,GD,12.0564,-61.7485,78.8,73,20,23.02,1616546667
Gijang,KR,35.2442,129.2139,55.4,47,0,1.14,1616546667
Qaqortoq,GL,60.7167,-46.0333,19.4,45,75,5.75,1616546667
Amreli,IN,21.6167,71.2333,77.0,49,0,6.35,1616546668
Tiarei,PF,-17.5333,-149.3333,89.6,62,75,18.41,1616546668
Koslan,RU,63.4564,48.8989,24.26,93,100,12.5,1616546668
Batemans Bay,AU,-35.7167,150.1833,75.99,67,2,5.01,1616546669
Miyako,JP,39.6367,141.9525,54.16,45,31,7.52,1616546669
Vershino-Shakhtaminskiy,RU,51.3012,117.8868,26.85,76,11,3.51,1616546669
Marawi,PH,7.9986,124.2928,82.0,75,98,4.0,1616546670
Oodweyne,SO,9.4092,45.064,65.73,34,0,6.73,1616546670
Tiksi,RU,71.6872,128.8694,-19.5,99,100,2.71,1616546670
Krasnystaw,PL,50.9846,23.1742,28.4,100,17,3.06,1616546670
Harar,ET,9.3094,42.1258,58.14,28,1,2.98,1616546671
Santa Maria,BR,-29.6842,-53.8069,69.8,100,90,6.91,1616546671
Longview,US,32.5007,-94.7405,71.6,35,1,6.91,1616546587
Soyo,AO,-6.1349,12.3689,79.68,86,100,10.85,1616546671
Faya,SA,18.3851,42.4509,59.0,33,0,3.98,1616546672
Hay River,CA,60.8156,-115.7999,5.0,72,97,8.05,1616546672
Walvis Bay,NA,-22.9575,14.5053,64.4,82,18,3.44,1616546672
Tamworth,GB,52.634,-1.6959,45.0,88,96,5.99,1616546469
